site_code,NRS,lat,lon,timeMin,timeMax,yearMin,yearMax
BMP070,FALSE,-36.1906711998151,150.189294787346,2014-11-18T22:00:00Z,2024-07-25T21:00:00Z,2014,2024
BMP090,FALSE,-36.1900909305754,150.233351196777,2011-03-30T00:00:00Z,2015-12-05T00:00:00Z,2011,2015
BMP120,FALSE,-36.2058530877662,150.315155741602,2011-03-29T23:00:00Z,2024-07-25T23:00:00Z,2011,2024
CAM050,FALSE,-14.8503785942808,123.802701357837,2014-08-28T09:00:00Z,2015-07-28T03:00:00Z,2014,2015
CH050,FALSE,-30.3104098857753,153.228564717333,2016-11-07T00:00:00Z,2024-08-17T22:00:00Z,2016,2024
CH070,FALSE,-30.2736139771128,153.298794427307,2009-08-15T00:00:00Z,2024-04-17T23:00:00Z,2009,2024
CH100,FALSE,-30.2666513885362,153.394730770161,2009-08-15T02:00:00Z,2024-04-18T01:00:00Z,2009,2024
DARBGF,FALSE,-12.1078015186143,130.587029363534,2013-06-26T03:00:00Z,2017-02-07T07:00:00Z,2013,2017
EAC0500,FALSE,-27.3279517892073,153.899255718316,2015-05-24T02:00:00Z,2022-07-26T03:00:00Z,2015,2022
EAC1520,FALSE,-27.3125999999866,153.968999999974,2012-04-21T04:00:00Z,2013-08-23T21:00:00Z,2012,2013
EAC2000,FALSE,-27.3139304422107,153.999599835158,2012-04-22T07:00:00Z,2022-07-25T21:00:00Z,2012,2022
EAC3200,FALSE,-27.2836392918352,154.135102699486,2015-05-22T06:00:00Z,2022-07-24T22:00:00Z,2015,2022
EAC4200,FALSE,-27.2442520237094,154.292938772784,2012-04-23T12:00:00Z,2022-07-18T21:00:00Z,2012,2022
EAC4700,FALSE,-27.2073152041844,154.644864553135,2012-04-25T07:00:00Z,2022-07-16T21:00:00Z,2012,2022
EAC4800,FALSE,-27.1048856220031,155.297310223243,2012-04-26T10:00:00Z,2022-07-15T22:00:00Z,2012,2022
GBRCCH,FALSE,-22.4030577933768,151.988170330857,2007-09-10T08:00:00Z,2024-08-03T02:00:00Z,2007,2024
GBRELR,FALSE,-21.0225977698579,152.814592239837,2007-09-15T12:00:00Z,2014-10-14T05:00:00Z,2007,2014
GBRHIN,FALSE,-23.3815920822461,151.987112609859,2007-09-12T00:00:00Z,2013-03-16T07:00:00Z,2007,2013
GBRHIS,FALSE,-23.5132983981215,151.955296120406,2007-09-12T23:00:00Z,2024-08-05T05:00:00Z,2007,2024
GBRLSH,FALSE,-14.7024869884303,145.636941076859,2008-06-14T06:00:00Z,2014-05-20T03:00:00Z,2008,2014
GBRLSL,FALSE,-14.3398736624835,145.303439590086,2007-11-03T11:00:00Z,2024-09-18T23:00:00Z,2007,2024
GBRMYR,FALSE,-18.2194739877956,147.345544635905,2007-10-30T12:00:00Z,2024-09-14T23:00:00Z,2007,2024
GBROTE,FALSE,-23.4829271880106,152.172826138489,2007-09-15T09:00:00Z,2024-08-06T02:00:00Z,2007,2024
GBRPPS,FALSE,-18.3087181959289,147.165542019322,2007-10-29T11:00:00Z,2024-09-12T23:00:00Z,2007,2024
ITFFTB,FALSE,-12.2899767761702,128.477181936885,2010-06-28T01:00:00Z,2019-07-29T06:00:00Z,2010,2019
ITFJBG,FALSE,-13.6085536190097,128.96657925463,2010-06-27T03:00:00Z,2019-07-29T22:00:00Z,2010,2019
ITFMHB,FALSE,-11.0000903657579,128.000199206061,2010-06-29T02:00:00Z,2019-07-28T21:00:00Z,2010,2019
ITFOMB,FALSE,-8.52894210293599,125.080016856887,2011-06-19T06:00:00Z,2015-10-21T00:00:00Z,2011,2015
ITFTIN,FALSE,-8.85772099510254,127.19516321774,2011-06-14T04:00:00Z,2014-04-15T22:00:00Z,2011,2014
ITFTIS,FALSE,-9.81786247100204,127.554238096704,2010-06-30T04:00:00Z,2019-02-17T22:00:00Z,2010,2019
ITFTNS,FALSE,-9.00189999999395,127.253800000047,2014-04-18T03:00:00Z,2015-10-26T22:00:00Z,2014,2015
ITFTSL,FALSE,-9.27415269504313,127.359715692894,2011-06-13T07:00:00Z,2015-10-24T23:00:00Z,2011,2015
KIM050,FALSE,-16.3879485670422,121.588295599052,2011-10-22T00:00:00Z,2014-08-18T22:00:00Z,2011,2014
KIM100,FALSE,-15.673487858253,121.302092774718,2012-02-01T07:00:00Z,2014-08-23T02:00:00Z,2012,2014
KIM200,FALSE,-15.534637437355,121.243108205539,2012-02-02T06:00:00Z,2014-08-26T23:00:00Z,2012,2014
KIM400,FALSE,-15.2212472395829,121.115224537452,2012-02-03T06:00:00Z,2014-08-23T09:00:00Z,2012,2014
NRSDAR,TRUE,-12.3420686796457,130.710055406346,2009-08-16T00:00:00Z,2024-11-20T00:00:00Z,2009,2024
NRSESP,FALSE,-33.9324722796744,121.850184600887,2008-11-27T07:00:00Z,2013-12-05T02:00:00Z,2008,2013
NRSKAI,TRUE,-35.8371342886181,136.446649658229,2008-02-12T08:00:00Z,2024-09-23T21:00:00Z,2008,2024
NRSMAI,TRUE,-42.5974919161894,148.233322501917,2008-04-11T11:00:00Z,2024-11-25T23:00:00Z,2008,2024
NRSNIN,FALSE,-21.8672855989525,113.947480506164,2010-08-02T04:00:00Z,2014-08-13T08:00:00Z,2010,2014
NRSNSI,TRUE,-27.3421968647327,153.561870843385,2010-12-13T02:00:00Z,2024-10-16T00:00:00Z,2010,2024
NRSROT,TRUE,-31.9931087682458,115.393581047078,2008-11-20T09:00:00Z,2024-12-11T02:00:00Z,2008,2024
NRSYON,TRUE,-19.3024688593352,147.620814404384,2008-06-23T01:00:00Z,2024-03-04T04:00:00Z,2008,2024
NWSBAR,FALSE,-20.7607173060247,114.757004359405,2019-08-06T02:00:00Z,2024-11-08T07:00:00Z,2019,2024
NWSBRW,FALSE,-14.2354642167633,123.163463619489,2019-07-31T08:00:00Z,2024-11-14T01:00:00Z,2019,2024
NWSLYN,FALSE,-9.9380654169362,130.349308772645,2019-07-28T04:00:00Z,2024-11-16T01:00:00Z,2019,2024
NWSROW,FALSE,-17.7585433141647,119.90593659161,2019-08-04T02:00:00Z,2024-11-10T01:00:00Z,2019,2024
ORS065,FALSE,-33.8945049376626,151.31472999759,2006-06-08T00:00:00Z,2024-03-13T01:00:00Z,2006,2024
PAPCA,FALSE,-31.8855328790014,115.007923589156,2010-08-05T12:00:00Z,2017-01-20T11:00:00Z,2010,2017
PAPOR,FALSE,-38.5397615460444,141.231459423507,2010-02-07T03:00:00Z,2017-02-21T23:00:00Z,2010,2017
PATUN,FALSE,-32.3115920293545,152.92305801445,2010-02-09T23:00:00Z,2015-08-25T03:00:00Z,2010,2015
PH100,TRUE,-34.1196535976901,151.224537574231,2009-10-29T03:00:00Z,2024-07-23T23:00:00Z,2009,2024
PIL050,FALSE,-20.0546190158276,116.416028108495,2012-02-21T04:00:00Z,2014-08-16T07:00:00Z,2012,2014
PIL100,FALSE,-19.6942974501051,116.111638600867,2012-02-20T10:00:00Z,2014-08-16T03:00:00Z,2012,2014
PIL200,FALSE,-19.435499787672,115.915315045692,2012-02-20T01:00:00Z,2014-08-16T00:00:00Z,2012,2014
SAM1DS,FALSE,-36.5158659390911,136.242935404388,2008-12-11T21:00:00Z,2009-06-04T00:00:00Z,2008,2009
SAM2CP,FALSE,-35.2728930687938,135.679934744394,2008-10-20T21:00:00Z,2010-03-17T00:00:00Z,2008,2010
SAM3MS,FALSE,-36.1456538337163,135.902968818427,2011-02-22T08:00:00Z,2013-06-30T00:00:00Z,2011,2013
SAM4CY,FALSE,-36.5233409446987,136.861955563513,2009-02-05T21:00:00Z,2010-03-16T04:00:00Z,2009,2010
SAM5CB,FALSE,-34.9279653586539,135.008671708996,2009-02-06T21:00:00Z,2024-11-19T22:00:00Z,2009,2024
SAM7DS,FALSE,-36.1826307764665,135.846227512715,2009-12-15T08:00:00Z,2014-03-12T20:00:00Z,2009,2014
SAM8SG,FALSE,-35.2494520598263,136.690455877772,2009-06-02T08:00:00Z,2024-09-24T07:00:00Z,2009,2024
SAMUSG,FALSE,-33.111022328313,137.70833851504,2019-07-27T07:00:00Z,2024-11-04T23:00:00Z,2019,2024
SEQ200,FALSE,-27.3399833333055,153.774783333298,2012-04-01T00:00:00Z,2013-06-06T20:00:00Z,2012,2013
SEQ400,FALSE,-27.331850000004,153.876533333258,2012-04-01T00:00:00Z,2013-06-06T22:00:00Z,2012,2013
SR030,FALSE,-32.4575381715011,152.549059999993,2020-08-14T01:00:00Z,2023-10-10T23:00:00Z,2020,2023
SR050,FALSE,-32.4801264351511,152.568520694544,2020-08-14T01:00:00Z,2023-10-11T00:00:00Z,2020,2023
SYD100,FALSE,-33.9425424604875,151.382190166612,2008-06-25T04:00:00Z,2024-05-28T23:00:00Z,2008,2024
SYD140,FALSE,-33.9954096658596,151.450879336466,2008-06-25T00:00:00Z,2024-05-29T00:00:00Z,2008,2024
TAN100,FALSE,-21.8499443270309,113.906745222043,2010-08-02T05:00:00Z,2024-11-07T02:00:00Z,2010,2024
VBM100,TRUE,-38.4086039850509,141.270868936459,2019-06-24T02:00:00Z,2023-12-06T02:00:00Z,2019,2023
WACA20,FALSE,-31.9834051924212,115.228428588342,2010-01-22T06:00:00Z,2024-08-05T02:00:00Z,2010,2024
WACANO,FALSE,-31.9328166667039,115.011116666715,2010-01-22T08:00:00Z,2010-07-20T08:00:00Z,2010,2010
WACASO,FALSE,-32.0846397585455,115.07143686062,2010-01-22T08:00:00Z,2014-03-07T03:00:00Z,2010,2014
WATR05,FALSE,-31.6265860768824,115.245497815464,2009-07-10T07:00:00Z,2013-05-27T02:00:00Z,2009,2013
WATR10,FALSE,-31.6457211952188,115.199928939884,2009-07-10T07:00:00Z,2024-07-12T04:00:00Z,2009,2024
WATR15,FALSE,-31.6885676353566,115.125059020894,2009-07-10T07:00:00Z,2013-10-03T05:00:00Z,2009,2013
WATR20,FALSE,-31.7275541474016,115.039496574981,2009-07-15T08:00:00Z,2025-01-22T03:00:00Z,2009,2025
WATR50,FALSE,-31.7684189582472,114.959632210645,2009-07-15T08:00:00Z,2025-01-22T02:00:00Z,2009,2025
CAM100,FALSE,-14.3148710731545,123.595643662058,2014-08-29T08:00:00Z,2015-07-28T07:00:00Z,2014,2015
WATR04,FALSE,-31.717432195127,115.39992996467,2013-11-11T08:00:00Z,2019-06-22T19:00:00Z,2013,2019
JB070,FALSE,-35.0766666667043,150.847800000037,2009-07-28T04:00:00Z,2009-10-07T07:00:00Z,2009,2009
SAM6IS,FALSE,-35.4991833333006,136.601150000002,2009-02-05T01:00:00Z,2009-06-02T06:00:00Z,2009,2009
